id,name,address,rating,latitude,longitude,link,total_reviews,opening_hours,phone,combined_text
121,Sunda Coffee & Space (Coffee Shop & Creative Space),Jl. Cikole Dalam No.38,"4,7",-6.9173,106.932,https://www.google.com/maps/place/Sunda+Coffee+%26+Space+%28Coffee+Shop+%26+Creative+Space%29/data=!4m7!3m6!1s0x2e6849cc84b3244b:0x8dc5aaa06160c7b2!8m2!3d-6.9172988!4d106.9324639!16s%2Fg%2F11h2hjcmtw!19sChIJSySzhMxJaC4RssdgYaCqxY0?authuser=0&hl=id&rclk=1,311,,,Sunda Coffee & Space (Coffee Shop & Creative Space) Jl. Cikole Dalam No.38
122,Like Earth Coffee,Jl. Syamsudin. SH No.20-10,"4,5",-6.9179,106.93,https://www.google.com/maps/place/Like+Earth+Coffee/data=!4m7!3m6!1s0x2e6849939c7d51cf:0x47da53ba2be4d4b9!8m2!3d-6.917897!4d106.9303913!16s%2Fg%2F11f65bn169!19sChIJz1F9nJNJaC4RudTkK7pT2kc?authuser=0&hl=id&rclk=1,2225,,,Like Earth Coffee Jl. Syamsudin. SH No.20-10
123,The Gade Corner Coffee and Gold Sukabumi,Jl. Pelabuhan No.77,"4,9",-6.92848,106.926,https://www.google.com/maps/place/The+Gade+Corner+Coffee+and+Gold+Sukabumi/data=!4m7!3m6!1s0x2e68499197259e73:0x127bd12bc1948795!8m2!3d-6.9284842!4d106.9263937!16s%2Fg%2F11sgkd_jxq!19sChIJc54ll5FJaC4RlYeUwSvRexI?authuser=0&hl=id&rclk=1,191,,,The Gade Corner Coffee and Gold Sukabumi Jl. Pelabuhan No.77
124,Cafe van Mila,Jl. Raya Cemerlang,"4,6",-6.91689,106.904,https://www.google.com/maps/place/Cafe+van+Mila/data=!4m7!3m6!1s0x2e6837d3b12a59cb:0x905e971cd768c2ff!8m2!3d-6.9168888!4d106.9039197!16s%2Fg%2F11bw5vqwft!19sChIJy1kqsdM3aC4R_8Jo1xyXXpA?authuser=0&hl=id&rclk=1,913,,,Cafe van Mila Jl. Raya Cemerlang
125,Yume Coffee,Jl. Surya Kencana No.31,"4,8",-6.9171,106.93,https://www.google.com/maps/place/Yume+Coffee/data=!4m7!3m6!1s0x2e6849f1fae10057:0x80f44f9702ecb7cd!8m2!3d-6.9171048!4d106.929665!16s%2Fg%2F11pbc49wy3!19sChIJVwDh-vFJaC4RzbfsApdP9IA?authuser=0&hl=id&rclk=1,399,,,Yume Coffee Jl. Surya Kencana No.31
126,Habit Coffee,Jl. Bhayangkara No.91,"4,7",-6.91426,106.92,https://www.google.com/maps/place/Habit+Coffee/data=!4m7!3m6!1s0x2e68494a7b03b809:0x63b13e2749581c9e!8m2!3d-6.9142624!4d106.9199599!16s%2Fg%2F11t7m0_xdj!19sChIJCbgDe0pJaC4RnhxYSSc-sWM?authuser=0&hl=id&rclk=1,246,,,Habit Coffee Jl. Bhayangkara No.91
127,Barn Coffee,Jl. Gudang No.5,"4,6",-6.92245,106.934,https://www.google.com/maps/place/Barn+Coffee/data=!4m7!3m6!1s0x2e68491ed0a714a5:0xb7a7440674847b73!8m2!3d-6.9224475!4d106.9339727!16s%2Fg%2F11fj2r23z5!19sChIJpRSn0B5JaC4Rc3uEdAZEp7c?authuser=0&hl=id&rclk=1,463,,,Barn Coffee Jl. Gudang No.5
128,Rutinitas coffe,Alamat tidak ditemukan,"4,7",-6.92267,106.945,https://www.google.com/maps/place/Rutinitas+coffe/data=!4m7!3m6!1s0x2e6849585e9c00cf:0xdb3950b42082aa63!8m2!3d-6.9226708!4d106.9449381!16s%2Fg%2F11mw7qxfk1!19sChIJzwCcXlhJaC4RY6qCILRQOds?authuser=0&hl=id&rclk=1,188,,,Rutinitas coffe Alamat tidak ditemukan
129,Dago House Food and Coffee Bar,Jl. Ir. H. Juanda No.5,"4,5",-6.91999,106.931,https://www.google.com/maps/place/Dago+House+Food+and+Coffee+Bar/data=!4m7!3m6!1s0x2e68483727328813:0x60849e2174dde142!8m2!3d-6.919988!4d106.9310191!16s%2Fg%2F11gcn1kwc5!19sChIJE4gyJzdIaC4RQuHddCGehGA?authuser=0&hl=id&rclk=1,840,,,Dago House Food and Coffee Bar Jl. Ir. H. Juanda No.5
130,Seecul Coffee Bar,"3WHG+WWG, Jl. Perintis Kemerdekaan No.2","4,7",-6.92027,106.927,https://www.google.com/maps/place/Seecul+Coffee+Bar/data=!4m7!3m6!1s0x2e684830fe84a7f7:0xedb745d74a58e691!8m2!3d-6.9202731!4d106.9273496!16s%2Fg%2F11c60h851g!19sChIJ96eE_jBIaC4RkeZYStdFt-0?authuser=0&hl=id&rclk=1,253,,,"Seecul Coffee Bar 3WHG+WWG, Jl. Perintis Kemerdekaan No.2"
131,Sukabumi Coffee Center,Jl. Mayawati Cafitol Plaza No.76 Lt. 1,"5,0",-6.92159,106.927,https://www.google.com/maps/place/Sukabumi+Coffee+Center/data=!4m7!3m6!1s0x2e6849001a56a705:0xda529dbda9c662be!8m2!3d-6.9215855!4d106.9268733!16s%2Fg%2F11vpdh3jgl!19sChIJBadWGgBJaC4RvmLGqb2dUto?authuser=0&hl=id&rclk=1,82,,,Sukabumi Coffee Center Jl. Mayawati Cafitol Plaza No.76 Lt. 1
132,K&J Coffee,Jl. Kenari II Kelurahan No.4,"4,9",-6.91457,106.929,https://www.google.com/maps/place/K%26J+Coffee/data=!4m7!3m6!1s0x2e6849522d447747:0xba788359a1968ebe!8m2!3d-6.9145677!4d106.9292051!16s%2Fg%2F11qh3m2dtk!19sChIJR3dELVJJaC4Rvo6WoVmDeLo?authuser=0&hl=id&rclk=1,65,,,K&J Coffee Jl. Kenari II Kelurahan No.4
133,Kopi Nako Sukabumi,Jl. Mayor Mahmud,"4,9",-6.90501,106.942,https://www.google.com/maps/place/Kopi+Nako+Sukabumi/data=!4m7!3m6!1s0x2e6849ab86d58d3b:0x4a5ce73411d9faf!8m2!3d-6.9050142!4d106.9415424!16s%2Fg%2F11l1jqzj7f!19sChIJO43VhqtJaC4Rr58dQXPOpQQ?authuser=0&hl=id&rclk=1,2292,,,Kopi Nako Sukabumi Jl. Mayor Mahmud
134,Analog Koffiehuis,Jl. Sriwijaya No.23,"4,7",-6.91759,106.918,https://www.google.com/maps/place/Analog+Koffiehuis/data=!4m7!3m6!1s0x2e68482c07125409:0x7256df0b4106d83d!8m2!3d-6.9175853!4d106.9182901!16s%2Fg%2F11cm047mh4!19sChIJCVQSByxIaC4RPdgGQQvfVnI?authuser=0&hl=id&rclk=1,282,,,Analog Koffiehuis Jl. Sriwijaya No.23
135,Seecul Coffee Bar,Jl. Raya Cemerlang No.8-10,"4,8",-6.9169,106.904,https://www.google.com/maps/place/Seecul+Coffee+Bar/data=!4m7!3m6!1s0x2e6837d153d033ab:0x4c4575f7564be087!8m2!3d-6.916904!4d106.9040144!16s%2Fg%2F11hbpr14vh!19sChIJqzPQU9E3aC4Rh-BLVvd1RUw?authuser=0&hl=id&rclk=1,69,,,Seecul Coffee Bar Jl. Raya Cemerlang No.8-10
136,VD Coffee,Jl. Cikiray-Cijambu No.40,"4,5",-6.91062,106.898,https://www.google.com/maps/place/VD+Coffee/data=!4m7!3m6!1s0x2e6837805efa20ef:0x54cbb74ee7a5840f!8m2!3d-6.9106222!4d106.8975234!16s%2Fg%2F11pm3ps3p3!19sChIJ7yD6XoA3aC4RD4Sl5063y1Q?authuser=0&hl=id&rclk=1,141,,,VD Coffee Jl. Cikiray-Cijambu No.40
137,OREGONCOFFEEBAR,Jl. Lkr. Sel.,"4,8",-6.94691,106.94,https://www.google.com/maps/place/OREGONCOFFEEBAR/data=!4m7!3m6!1s0x2e6849d8aa71a311:0x3edde016a8441484!8m2!3d-6.9469137!4d106.94039!16s%2Fg%2F11mhnqhwbf!19sChIJEaNxqthJaC4RhBREqBbg3T4?authuser=0&hl=id&rclk=1,299,,,OREGONCOFFEEBAR Jl. Lkr. Sel.
138,Coffee Chaproek,Jl. A. Yani No.23,"4,6",-6.92146,106.923,https://www.google.com/maps/place/Coffee+Chaproek/data=!4m7!3m6!1s0x2e6848308435477f:0xd1bdff01e0deb41d!8m2!3d-6.921457!4d106.9234728!16s%2Fg%2F11f0g9btt_!19sChIJf0c1hDBIaC4RHbTe4AH_vdE?authuser=0&hl=id&rclk=1,196,,,Coffee Chaproek Jl. A. Yani No.23
139,Coffee.Sejiwa,Jl. Cikiray Kidul No.146,"4,4",-6.90631,106.896,https://www.google.com/maps/place/Coffee.Sejiwa/data=!4m7!3m6!1s0x2e6837beaecfd38f:0x7c20c1acaf36b66d!8m2!3d-6.9063086!4d106.8961914!16s%2Fg%2F11pvgrkgz9!19sChIJj9PPrr43aC4RbbY2r6zBIHw?authuser=0&hl=id&rclk=1,194,,,Coffee.Sejiwa Jl. Cikiray Kidul No.146
140,Fore Coffee - Citimall Sukabumi,"Citimall Sukabumi, Jl. A. Yani No.121-127 Ground Floor Unit G-0115","4,7",-6.9222,106.929,https://www.google.com/maps/place/Fore+Coffee+-+Citimall+Sukabumi/data=!4m7!3m6!1s0x2e684991dae18313:0xa141641b64ed67f2!8m2!3d-6.922197!4d106.9287538!16s%2Fg%2F11t0pbk97b!19sChIJE4Ph2pFJaC4R8mftZBtkQaE?authuser=0&hl=id&rclk=1,137,,,"Fore Coffee - Citimall Sukabumi Citimall Sukabumi, Jl. A. Yani No.121-127 Ground Floor Unit G-0115"
141,Seecul Coffee Bar,Jl. Syamsudin. SH No.1,"4,7",-6.91755,106.93,https://www.google.com/maps/place/Seecul+Coffee+Bar/data=!4m7!3m6!1s0x2e684836aacef687:0xbced4485369cfe0a!8m2!3d-6.9175535!4d106.9299471!16s%2Fg%2F11b6_mnntl!19sChIJh_bOqjZIaC4RCv6cNoVE7bw?authuser=0&hl=id&rclk=1,190,,,Seecul Coffee Bar Jl. Syamsudin. SH No.1
142,Kopi Nako Sukabumi,Jl. Mayor Mahmud,"4,9",-6.90501,106.942,https://www.google.com/maps/place/Kopi+Nako+Sukabumi/data=!4m7!3m6!1s0x2e6849ab86d58d3b:0x4a5ce73411d9faf!8m2!3d-6.9050142!4d106.9415424!16s%2Fg%2F11l1jqzj7f!19sChIJO43VhqtJaC4Rr58dQXPOpQQ?authuser=0&hl=id&rclk=1,2292,,,Kopi Nako Sukabumi Jl. Mayor Mahmud
143,C'KOPI GAUD,Jl. A. Yani No.39,"4,5",-6.92167,106.925,https://www.google.com/maps/place/C%27KOPI+GAUD/data=!4m7!3m6!1s0x2e68483019be9e79:0xfa33acd24fc86e97!8m2!3d-6.9216695!4d106.9249364!16s%2Fg%2F11btsvdfml!19sChIJeZ6-GTBIaC4Rl27IT9KsM_o?authuser=0&hl=id&rclk=1,504,,,C'KOPI GAUD Jl. A. Yani No.39
144,Tji Colle Eatery And Coffe Shop,Jl. Surya Kencana No.38,"4,5",-6.91699,106.931,https://www.google.com/maps/place/Tji+Colle+Eatery+And+Coffe+Shop/data=!4m7!3m6!1s0x2e6848340437052f:0x9ff0140cb55e1a6d!8m2!3d-6.9169895!4d106.9305169!16s%2Fg%2F11c51_ywby!19sChIJLwU3BDRIaC4RbRpetQwU8J8?authuser=0&hl=id&rclk=1,153,,,Tji Colle Eatery And Coffe Shop Jl. Surya Kencana No.38
145,OREGONCOFFEEBAR,Jl. Lkr. Sel.,"4,8",-6.94691,106.94,https://www.google.com/maps/place/OREGONCOFFEEBAR/data=!4m7!3m6!1s0x2e6849d8aa71a311:0x3edde016a8441484!8m2!3d-6.9469137!4d106.94039!16s%2Fg%2F11mhnqhwbf!19sChIJEaNxqthJaC4RhBREqBbg3T4?authuser=0&hl=id&rclk=1,299,,,OREGONCOFFEEBAR Jl. Lkr. Sel.
146,Gourmet Coffeenery,Jl. R. E. Martadinata No.31,"4,6",-6.92041,106.931,https://www.google.com/maps/place/Gourmet+Coffeenery/data=!4m7!3m6!1s0x2e68495873ecbca3:0x241bd6a840a6d0c4!8m2!3d-6.9204149!4d106.930855!16s%2Fg%2F11f5qdgldk!19sChIJo7zsc1hJaC4RxNCmQKjWGyQ?authuser=0&hl=id&rclk=1,938,,,Gourmet Coffeenery Jl. R. E. Martadinata No.31
147,Starbucks Siliwangi Sukabumi,Jl. Siliwangi No.76,"4,7",-6.91826,106.936,https://www.google.com/maps/place/Starbucks+Siliwangi+Sukabumi/data=!4m7!3m6!1s0x2e6849a100887d59:0x794fe2e192912370!8m2!3d-6.9182585!4d106.9363307!16s%2Fg%2F11rqsmf77h!19sChIJWX2IAKFJaC4RcCORkuHiT3k?authuser=0&hl=id&rclk=1,448,,,Starbucks Siliwangi Sukabumi Jl. Siliwangi No.76
148,Mason Coffee,"Ruko Mutiara 8, Jl. KH. Ahmad Sanusi No.259 Rt.001/005","4,5",-6.91667,106.908,https://www.google.com/maps/place/Mason+Coffee/data=!4m7!3m6!1s0x2e6837add4f7d2d7:0x11d42aec5cbf5a59!8m2!3d-6.9166737!4d106.9081878!16s%2Fg%2F11fw4s98vl!19sChIJ19L31K03aC4RWVq_XOwq1BE?authuser=0&hl=id&rclk=1,71,,,"Mason Coffee Ruko Mutiara 8, Jl. KH. Ahmad Sanusi No.259 Rt.001/005"
149,Kukira Coffee,Jl. Bhayangkara No.6,"4,6",-6.91875,106.916,https://www.google.com/maps/place/Kukira+Coffee/data=!4m7!3m6!1s0x2e684986b7ce38ab:0x6aa7c2222244f3a2!8m2!3d-6.9187496!4d106.9163431!16s%2Fg%2F11s7wdm2h7!19sChIJqzjOt4ZJaC4RovNEIiLCp2o?authuser=0&hl=id&rclk=1,27,,,Kukira Coffee Jl. Bhayangkara No.6
150,Vanjaloe Coffe Shop,"Jl. Selabintana No.Km, RW.4","4,9",-6.89533,106.939,https://www.google.com/maps/place/Vanjaloe+Coffe+Shop/data=!4m7!3m6!1s0x2e68491a42918d91:0x37f4a66fb6e6b8f!8m2!3d-6.8953314!4d106.9386029!16s%2Fg%2F11q_31f_d_!19sChIJkY2RQhpJaC4Rj2tu-2ZKfwM?authuser=0&hl=id&rclk=1,21,,,"Vanjaloe Coffe Shop Jl. Selabintana No.Km, RW.4"
151,Kedai Kopi 35,Jl. Surya Kencana No.101,"4,6",-6.91105,106.935,https://www.google.com/maps/place/Kedai+Kopi+35/data=!4m7!3m6!1s0x2e6849745e51467f:0xaddf5df328382c4!8m2!3d-6.9110476!4d106.9346821!16s%2Fg%2F11gk6pwy1q!19sChIJf0ZRXnRJaC4RxIKDMt_13Qo?authuser=0&hl=id&rclk=1,365,,,Kedai Kopi 35 Jl. Surya Kencana No.101
152,Somewhere Coffee,Jl. Ciaul Jl. Selabintana,"4,6",-6.89396,106.942,https://www.google.com/maps/place/Somewhere+Coffee/data=!4m7!3m6!1s0x2e6849b19d34cd4d:0x8e4ca460a49896c9!8m2!3d-6.8939638!4d106.94169!16s%2Fg%2F11lnvn2llc!19sChIJTc00nbFJaC4RyZaYpGCkTI4?authuser=0&hl=id&rclk=1,177,,,Somewhere Coffee Jl. Ciaul Jl. Selabintana
153,Thread Coffee,Jl. Kenari No.12,"4,8",-6.91486,106.93,https://www.google.com/maps/place/Thread+Coffee/data=!4m7!3m6!1s0x2e684910ed965b95:0x1eef3bb35e9035d2!8m2!3d-6.9148603!4d106.9299571!16s%2Fg%2F11kp5sz4vs!19sChIJlVuW7RBJaC4R0jWQXrM77x4?authuser=0&hl=id&rclk=1,22,,,Thread Coffee Jl. Kenari No.12
154,Fore Coffee - Citimall Sukabumi,"Citimall Sukabumi, Jl. A. Yani No.121-127 Ground Floor Unit G-0115","4,7",-6.9222,106.929,https://www.google.com/maps/place/Fore+Coffee+-+Citimall+Sukabumi/data=!4m7!3m6!1s0x2e684991dae18313:0xa141641b64ed67f2!8m2!3d-6.922197!4d106.9287538!16s%2Fg%2F11t0pbk97b!19sChIJE4Ph2pFJaC4R8mftZBtkQaE?authuser=0&hl=id&rclk=1,137,,,"Fore Coffee - Citimall Sukabumi Citimall Sukabumi, Jl. A. Yani No.121-127 Ground Floor Unit G-0115"
155,Coffee.Sejiwa,Jl. Cikiray Kidul No.146,"4,4",-6.90631,106.896,https://www.google.com/maps/place/Coffee.Sejiwa/data=!4m7!3m6!1s0x2e6837beaecfd38f:0x7c20c1acaf36b66d!8m2!3d-6.9063086!4d106.8961914!16s%2Fg%2F11pvgrkgz9!19sChIJj9PPrr43aC4RbbY2r6zBIHw?authuser=0&hl=id&rclk=1,194,,,Coffee.Sejiwa Jl. Cikiray Kidul No.146
156,MOKODO SPACE,Jl. Pelabuhan II No.178,"4,6",-6.93371,106.925,https://www.google.com/maps/place/MOKODO+SPACE/data=!4m7!3m6!1s0x2e6849a4eb5aac35:0xeb48e7175dc749!8m2!3d-6.9337058!4d106.9249425!16s%2Fg%2F11fvw_ty5z!19sChIJNaxa66RJaC4RScddF-dI6wA?authuser=0&hl=id&rclk=1,462,,,MOKODO SPACE Jl. Pelabuhan II No.178
157,Brue,Alamat tidak ditemukan,"4,7",-6.91747,106.931,https://www.google.com/maps/place/Brue/data=!4m7!3m6!1s0x2e684987b0c938ad:0xa846ed4cf4361deb!8m2!3d-6.917467!4d106.9313126!16s%2Fg%2F11vdf9qrm5!19sChIJrTjJsIdJaC4R6x029EztRqg?authuser=0&hl=id&rclk=1,55,,,Brue Alamat tidak ditemukan
158,Viesta Coffee & Dining,Jl. Siliwangi No.115,"4,4",-6.91381,106.935,https://www.google.com/maps/place/Viesta+Coffee+%26+Dining/data=!4m7!3m6!1s0x2e684835659e85e1:0xb6f793b14f2118e7!8m2!3d-6.9138142!4d106.9351942!16s%2Fg%2F11c3_1wtkx!19sChIJ4YWeZTVIaC4R5xghT7GT97Y?authuser=0&hl=id&rclk=1,634,,,Viesta Coffee & Dining Jl. Siliwangi No.115
159,Tekun.id Sukabumi,Jl. Ir. H. Juanda,"4,9",-6.92026,106.931,https://www.google.com/maps/place/Tekun.id+Sukabumi/data=!4m7!3m6!1s0x2e68496e201c4461:0x6807920472c07dcb!8m2!3d-6.9202609!4d106.9309856!16s%2Fg%2F11rf9_ytkc!19sChIJYUQcIG5JaC4Ry33AcgSSB2g?authuser=0&hl=id&rclk=1,435,,,Tekun.id Sukabumi Jl. Ir. H. Juanda
160,Soekabums Coffee,Jl. Bhayangkara No.76A,"4,9",-6.91504,106.92,https://www.google.com/maps/place/Soekabums+Coffee/data=!4m7!3m6!1s0x2e6849d57b04d413:0x81d89c50b9810631!8m2!3d-6.9150433!4d106.9198664!16s%2Fg%2F11vc0sbvsr!19sChIJE9QEe9VJaC4RMQaBuVCc2IE?authuser=0&hl=id&rclk=1,13,,,Soekabums Coffee Jl. Bhayangkara No.76A
161,Kopi Kamana - Sriwidari,Jl. Sriwidari,"4,7",-6.91732,106.926,https://www.google.com/maps/place/Kopi+Kamana+-+Sriwidari/data=!4m7!3m6!1s0x2e6849db58f6ea9b:0x9808978ab92e2255!8m2!3d-6.9173245!4d106.9258326!16s%2Fg%2F11rrr9pjn_!19sChIJm-r2WNtJaC4RVSIuuYqXCJg?authuser=0&hl=id&rclk=1,188,,,Kopi Kamana - Sriwidari Jl. Sriwidari
162,Kopi Kamana - Lettu Bakri,Jl. Lettu Bakri No.8,"4,7",-6.92204,106.922,https://www.google.com/maps/place/Kopi+Kamana+-+Lettu+Bakri/data=!4m7!3m6!1s0x2e6849ea7527ed5f:0xc0eac1d338a380db!8m2!3d-6.9220441!4d106.9221338!16s%2Fg%2F11hdy7j9lf!19sChIJX-0ndepJaC4R24CjONPB6sA?authuser=0&hl=id&rclk=1,240,,,Kopi Kamana - Lettu Bakri Jl. Lettu Bakri No.8
163,Co-Feed Coffee,Jl. Dewi Sartika No.39,"4,9",-6.91748,106.932,https://www.google.com/maps/place/Co-Feed+Coffee/data=!4m7!3m6!1s0x2e684945087f2f57:0x81aff099122d835b!8m2!3d-6.9174808!4d106.932235!16s%2Fg%2F11rjv1lc1_!19sChIJVy9_CEVJaC4RW4MtEpnwr4E?authuser=0&hl=id&rclk=1,39,,,Co-Feed Coffee Jl. Dewi Sartika No.39
164,Kopitiam Sukabumi,"Jalan Surya Kencana, Selabatu, Cikole, Jl. Surya Kencana No.50","4,4",-6.91679,106.931,https://www.google.com/maps/place/Kopitiam+Sukabumi/data=!4m7!3m6!1s0x2e6848341a203c7b:0xc4b3d488bcb4cc35!8m2!3d-6.9167923!4d106.9310169!16s%2Fg%2F11c5x35tr_!19sChIJezwgGjRIaC4RNcy0vIjUs8Q?authuser=0&hl=id&rclk=1,336,,,"Kopitiam Sukabumi Jalan Surya Kencana, Selabatu, Cikole, Jl. Surya Kencana No.50"
165,Nama Coffee,Jl. RH. Didi Sukardi No.37,"4,6",-6.93413,106.932,https://www.google.com/maps/place/Nama+Coffee/data=!4m7!3m6!1s0x2e6849f69256371f:0xe1d6e8bae52d7ead!8m2!3d-6.9341349!4d106.932222!16s%2Fg%2F11j3rdk7x9!19sChIJHzdWkvZJaC4RrX4t5bro1uE?authuser=0&hl=id&rclk=1,550,,,Nama Coffee Jl. RH. Didi Sukardi No.37
166,Point Cafe Raden Samsudin,Alamat tidak ditemukan,"4,8",-6.91485,106.936,https://www.google.com/maps/place/Point+Cafe+Raden+Samsudin/data=!4m7!3m6!1s0x2e68498c6dbc9fc3:0xc7fea6d4ba7873df!8m2!3d-6.9148532!4d106.9357845!16s%2Fg%2F11fj98rzy9!19sChIJw5-8bYxJaC4R33N4utSm_sc?authuser=0&hl=id&rclk=1,112,,,Point Cafe Raden Samsudin Alamat tidak ditemukan
167,Kopitiam Zakse,Jl. Zaenal Zakse No.9B,"4,6",-6.92233,106.931,https://www.google.com/maps/place/Kopitiam+Zakse/data=!4m7!3m6!1s0x2e684837591e47eb:0x349d874c617e6905!8m2!3d-6.9223259!4d106.93087!16s%2Fg%2F11bzyqwgvb!19sChIJ60ceWTdIaC4RBWl-YUyHnTQ?authuser=0&hl=id&rclk=1,154,,,Kopitiam Zakse Jl. Zaenal Zakse No.9B
168,Kedai Kopi Nusantara Sukabumi,Jl. Cicantayan,"4,7",-6.90722,106.874,https://www.google.com/maps/place/Kedai+Kopi+Nusantara+Sukabumi/data=!4m7!3m6!1s0x2e683651085e2bef:0x718208dd0e95b80b!8m2!3d-6.9072209!4d106.8737166!16s%2Fg%2F11f_p2qspg!19sChIJ7yteCFE2aC4RC7iVDt0IgnE?authuser=0&hl=id&rclk=1,51,,,Kedai Kopi Nusantara Sukabumi Jl. Cicantayan
169,Kedai Coffe KOPDUDE,Jl. Pajajaran 1 No.36,"4,7",-6.91495,106.898,https://www.google.com/maps/place/Kedai+Coffe+KOPDUDE/data=!4m7!3m6!1s0x2e6837e222a6d5f1:0x3402aa653fbc4b!8m2!3d-6.914945!4d106.89828!16s%2Fg%2F11rwx2rmsk!19sChIJ8dWmIuI3aC4RS7w_ZaoCNAA?authuser=0&hl=id&rclk=1,10,,,Kedai Coffe KOPDUDE Jl. Pajajaran 1 No.36
170,Point Coffee Jalur Sukabumi,"Jl. RAYA LINGKAR SLEATAN, JALUR ) SINDANG SARI","4,6",-6.94797,106.916,https://www.google.com/maps/place/Point+Coffee+Jalur+Sukabumi/data=!4m7!3m6!1s0x2e684993506316a5:0xd6d8ef289aea6a94!8m2!3d-6.9479707!4d106.9161151!16s%2Fg%2F11fpkwz688!19sChIJpRZjUJNJaC4RlGrqmijv2NY?authuser=0&hl=id&rclk=1,27,,,"Point Coffee Jalur Sukabumi Jl. RAYA LINGKAR SLEATAN, JALUR ) SINDANG SARI"
171,Seecul Signature Kaum,Jl. Masjid No.11,"4,7",-6.92007,106.925,https://www.google.com/maps/place/Seecul+Signature+Kaum/data=!4m7!3m6!1s0x2e6849a11da91383:0x77ff921188ac69eb!8m2!3d-6.9200698!4d106.9253477!16s%2Fg%2F11nykx29cf!19sChIJgxOpHaFJaC4R62msiBGS_3c?authuser=0&hl=id&rclk=1,57,,,Seecul Signature Kaum Jl. Masjid No.11
172,Teras Kopi,Alamat tidak ditemukan,"5,0",-6.92518,106.924,https://www.google.com/maps/place/Teras+Kopi/data=!4m7!3m6!1s0x2e68492ac016987f:0x4006f7d2126a9d6f!8m2!3d-6.9251804!4d106.9238595!16s%2Fg%2F11fl5q0mh6!19sChIJf5gWwCpJaC4Rb51qEtL3BkA?authuser=0&hl=id&rclk=1,51,,,Teras Kopi Alamat tidak ditemukan
173,Mokopi Jalur,Jl. Tangkil - Agrabinta,"4,1",-6.93389,106.904,https://www.google.com/maps/place/Mokopi+Jalur/data=!4m7!3m6!1s0x2e6837b075128f4f:0xddcde4b70d6bbc0f!8m2!3d-6.9338892!4d106.9035913!16s%2Fg%2F11tslq7pz4!19sChIJT48SdbA3aC4RD7xrDbfkzd0?authuser=0&hl=id&rclk=1,214,,,Mokopi Jalur Jl. Tangkil - Agrabinta
174,Brewcave Brewtherhood,Jl. R. E. Martadinata Gg. Ajid I No.11,"4,8",-6.91951,106.93,https://www.google.com/maps/place/Brewcave+Brewtherhood/data=!4m7!3m6!1s0x2e684906225f6ce3:0x78d78c8e37d0d8a!8m2!3d-6.919507!4d106.9296383!16s%2Fg%2F11gfjd6sn5!19sChIJ42xfIgZJaC4Rig1948h4jQc?authuser=0&hl=id&rclk=1,100,,,Brewcave Brewtherhood Jl. R. E. Martadinata Gg. Ajid I No.11
175,Sulanjana coffee & Eatery,"4W4Q+39H, Jl. Selabintana","4,8",-6.89434,106.938,https://www.google.com/maps/place/Sulanjana+coffee+%26+Eatery/data=!4m7!3m6!1s0x2e68490005edab03:0xe039e4cbe5aef4e6!8m2!3d-6.8943366!4d106.9382412!16s%2Fg%2F11lcjfyz5d!19sChIJA6vtBQBJaC4R5vSu5cvkOeA?authuser=0&hl=id&rclk=1,22,,,"Sulanjana coffee & Eatery 4W4Q+39H, Jl. Selabintana"
176,HERBIE Coffee,Jl. Pajajaran 1 RW13 blok AC9 No.RT.42,"5,0",-6.91993,106.898,https://www.google.com/maps/place/HERBIE+Coffee/data=!4m7!3m6!1s0x2e683786d7c5d17d:0xc86248525c81307e!8m2!3d-6.9199285!4d106.8982785!16s%2Fg%2F11mqwmgcfy!19sChIJfdHF14Y3aC4RfjCBXFJIYsg?authuser=0&hl=id&rclk=1,10,,,HERBIE Coffee Jl. Pajajaran 1 RW13 blok AC9 No.RT.42
177,D'Green Resto and Coffee,Jl. Selabintana No.54,"4,5",-6.90736,106.937,https://www.google.com/maps/place/D%27Green+Resto+and+Coffee/data=!4m7!3m6!1s0x2e6849b5e5e9edcf:0xe35fbd6ada039627!8m2!3d-6.9073637!4d106.9372068!16s%2Fg%2F11bw21bts8!19sChIJz-3p5bVJaC4RJ5YD2mq9X-M?authuser=0&hl=id&rclk=1,1750,,,D'Green Resto and Coffee Jl. Selabintana No.54
178,DISISICOFFEE,Jl. Pajagalan No.19,"4,7",-6.92511,106.923,https://www.google.com/maps/place/DISISICOFFEE/data=!4m7!3m6!1s0x2e6849eff3e014c3:0x11e11b79c57646c4!8m2!3d-6.9251134!4d106.9227412!16s%2Fg%2F11vjmrx97p!19sChIJwxTg8-9JaC4RxEZ2xXkb4RE?authuser=0&hl=id&rclk=1,14,,,DISISICOFFEE Jl. Pajagalan No.19
179,KOMIE,Jl. Sriwidari No.34,"4,6",-6.9161,106.927,https://www.google.com/maps/place/KOMIE/data=!4m7!3m6!1s0x2e6848324a063ead:0x12abf0f85733d51a!8m2!3d-6.916097!4d106.9267232!16s%2Fg%2F11fy933022!19sChIJrT4GSjJIaC4RGtUzV_jwqxI?authuser=0&hl=id&rclk=1,35,,,KOMIE Jl. Sriwidari No.34
180,Warga Holy,Alamat tidak ditemukan,"4,6",-6.91282,106.933,https://www.google.com/maps/place/Warga+Holy/data=!4m7!3m6!1s0x2e68496d3655607f:0x62c1b79b0a982d96!8m2!3d-6.9128191!4d106.9331877!16s%2Fg%2F11tjm04y4d!19sChIJf2BVNm1JaC4Rli2YCpu3wWI?authuser=0&hl=id&rclk=1,59,,,Warga Holy Alamat tidak ditemukan
181,Kopi Kenangan - Ruko Graha Siliwangi Sukabumi,Jl. Siliwangi,"4,4",-6.91536,106.936,https://www.google.com/maps/place/Kopi+Kenangan+-+Ruko+Graha+Siliwangi+Sukabumi/data=!4m7!3m6!1s0x2e6849f2fc031d6d:0x479d1776fb8bed89!8m2!3d-6.9153648!4d106.9359896!16s%2Fg%2F11j_82wszp!19sChIJbR0D_PJJaC4Rie2L-3YXnUc?authuser=0&hl=id&rclk=1,56,,,Kopi Kenangan - Ruko Graha Siliwangi Sukabumi Jl. Siliwangi
182,Kedai Kopi Jarian,Jl. Cipelang Leutik No.11-127,"4,9",-6.91695,106.929,https://www.google.com/maps/place/Kedai+Kopi+Jarian/data=!4m7!3m6!1s0x2e6849e5b6b9898d:0x81176234d53be1e5!8m2!3d-6.9169472!4d106.9294649!16s%2Fg%2F11g22_xftn!19sChIJjYm5tuVJaC4R5eE71TRiF4E?authuser=0&hl=id&rclk=1,21,,,Kedai Kopi Jarian Jl. Cipelang Leutik No.11-127
183,Kedai Kong Djie Coffee,Jl. Cikole Dalam No.13,"4,5",-6.91644,106.933,https://www.google.com/maps/place/Kedai+Kong+Djie+Coffee/data=!4m7!3m6!1s0x2e6849e8e84d91df:0x74d8d9c63caf77db!8m2!3d-6.9164429!4d106.9327046!16s%2Fg%2F11jnvrz59z!19sChIJ35FN6OhJaC4R23evPMbZ2HQ?authuser=0&hl=id&rclk=1,27,,,Kedai Kong Djie Coffee Jl. Cikole Dalam No.13
184,Weekly Coffee,Jl. RH. Didi Sukardi No.168,"4,4",-6.93299,106.932,https://www.google.com/maps/place/Weekly+Coffee/data=!4m7!3m6!1s0x2e6849c568074167:0x65783666e47290e4!8m2!3d-6.9329915!4d106.9320438!16s%2Fg%2F11rx3dj85k!19sChIJZ0EHaMVJaC4R5JBy5GY2eGU?authuser=0&hl=id&rclk=1,10,,,Weekly Coffee Jl. RH. Didi Sukardi No.168
185,All Sunday Space,Jl. Brawijaya No.7,"4,7",-6.91853,106.919,https://www.google.com/maps/place/All+Sunday+Space/data=!4m7!3m6!1s0x2e6849f1d1176885:0x3f92392b4651b16e!8m2!3d-6.9185349!4d106.919399!16s%2Fg%2F11twhvch7n!19sChIJhWgX0fFJaC4RbrFRRis5kj8?authuser=0&hl=id&rclk=1,38,,,All Sunday Space Jl. Brawijaya No.7
186,Cafe Kappe,Alamat tidak ditemukan,"4,4",-6.9165,106.932,https://www.google.com/maps/place/Cafe+Kappe/data=!4m7!3m6!1s0x2e6848343bea3bdf:0x546de04d1089fb19!8m2!3d-6.916497!4d106.9317668!16s%2Fg%2F11ckr9p0q2!19sChIJ3zvqOzRIaC4RGfuJEE3gbVQ?authuser=0&hl=id&rclk=1,121,,,Cafe Kappe Alamat tidak ditemukan
187,Kopi Janji Jiwa Sukabumi,Jl. Bhayangkara No.38,"4,6",-6.91614,106.917,https://www.google.com/maps/place/Kopi+Janji+Jiwa+Sukabumi/data=!4m7!3m6!1s0x2e6849efd9c58d07:0x6bb97760de4b4c16!8m2!3d-6.916138!4d106.9174114!16s%2Fg%2F11j435w3wf!19sChIJB43F2e9JaC4RFkxL3mB3uWs?authuser=0&hl=id&rclk=1,148,,,Kopi Janji Jiwa Sukabumi Jl. Bhayangkara No.38
188,Red Brick Cafe,Jl. Pelabuhan II No.271,"4,6",-6.94009,106.924,https://www.google.com/maps/place/Red+Brick+Cafe/data=!4m7!3m6!1s0x2e68481a779b386b:0x536ff43d2a289e6e!8m2!3d-6.9400865!4d106.9235813!16s%2Fg%2F11cp77yzq8!19sChIJazibdxpIaC4Rbp4oKj30b1M?authuser=0&hl=id&rclk=1,1727,,,Red Brick Cafe Jl. Pelabuhan II No.271
189,Cafe Abadi COFFEE & BOBA DEGUNG,"3WH8+X8W, Jl. Benteng","5,0",-6.92,106.916,https://www.google.com/maps/place/Cafe+Abadi+COFFEE+%26+BOBA+DEGUNG/data=!4m7!3m6!1s0x2e68491bc6010801:0xfcf21b8687a601a7!8m2!3d-6.9200004!4d106.9158251!16s%2Fg%2F11rknz5543!19sChIJAQgBxhtJaC4RpwGmh4Yb8vw?authuser=0&hl=id&rclk=1,4,,,"Cafe Abadi COFFEE & BOBA DEGUNG 3WH8+X8W, Jl. Benteng"
190,Kaisha palace Food and coffee,Jl. Siliwangi No.80,"4,5",-6.91793,106.936,https://www.google.com/maps/place/Kaisha+palace+Food+and+coffee/data=!4m7!3m6!1s0x2e684998c3b208a7:0xde79b254eac2e0fe!8m2!3d-6.917929!4d106.9363208!16s%2Fg%2F11p55rk93j!19sChIJpwiyw5hJaC4R_uDC6lSyed4?authuser=0&hl=id&rclk=1,145,,,Kaisha palace Food and coffee Jl. Siliwangi No.80
191,Angkringan Kopi Joss Sukabumi,Jl. Benteng Kidul No.22-19,"4,7",-6.92886,106.916,https://www.google.com/maps/place/Angkringan+Kopi+Joss+Sukabumi/data=!4m7!3m6!1s0x2e6849d3febaceb3:0xc0e1c45f2ef768b2!8m2!3d-6.9288648!4d106.9159748!16s%2Fg%2F11rghpkw5v!19sChIJs866_tNJaC4Rsmj3Ll_E4cA?authuser=0&hl=id&rclk=1,101,,,Angkringan Kopi Joss Sukabumi Jl. Benteng Kidul No.22-19
192,Kopi Dermawan,Jl. Surya Kencana No.52,"4,3",-6.91665,106.931,https://www.google.com/maps/place/Kopi+Dermawan/data=!4m7!3m6!1s0x2e684912f0c2a6fd:0x88ab2e8dcb787bcb!8m2!3d-6.9166462!4d106.9313158!16s%2Fg%2F11j2xg8tqp!19sChIJ_abC8BJJaC4Ry3t4y40uq4g?authuser=0&hl=id&rclk=1,106,,,Kopi Dermawan Jl. Surya Kencana No.52
193,Mr.yos,Jl. Gudang No.1,"5,0",-6.92268,106.934,https://www.google.com/maps/place/Mr.yos/data=!4m7!3m6!1s0x2e6849db5af09131:0x959eaa69fb4ed5b9!8m2!3d-6.9226835!4d106.9339108!16s%2Fg%2F11lrplc4jv!19sChIJMZHwWttJaC4RudVO-2mqnpU?authuser=0&hl=id&rclk=1,2,,,Mr.yos Jl. Gudang No.1
194,Praline Sukabumi,Jl. Surya Kencana No.82,"4,5",-6.91389,106.934,https://www.google.com/maps/place/Praline+Sukabumi/data=!4m7!3m6!1s0x2e68483567c113a7:0xedd710740d6b681f!8m2!3d-6.9138936!4d106.9336072!16s%2Fg%2F11clzhb15d!19sChIJpxPBZzVIaC4RH2hrDXQQ1-0?authuser=0&hl=id&rclk=1,396,,,Praline Sukabumi Jl. Surya Kencana No.82
195,Discovery Rooftop Cafe,"Fresh Hotel, Jl. Bhayangkara No.127 Building, 5th Floor","4,3",-6.91026,106.921,https://www.google.com/maps/place/Discovery+Rooftop+Cafe/data=!4m7!3m6!1s0x2e6849d28d07c7c1:0x18680b823f102eee!8m2!3d-6.9102577!4d106.9213868!16s%2Fg%2F11c2l9bpqx!19sChIJwccHjdJJaC4R7i4QP4ILaBg?authuser=0&hl=id&rclk=1,47,,,"Discovery Rooftop Cafe Fresh Hotel, Jl. Bhayangkara No.127 Building, 5th Floor"
196,Kedai Saribhumi,Alamat tidak ditemukan,"4,5",-6.91733,106.931,https://www.google.com/maps/place/Kedai+Saribhumi/data=!4m7!3m6!1s0x2e684836a041be25:0x8c6adc51bad66de5!8m2!3d-6.9173268!4d106.9313392!16s%2Fg%2F11dxj0pj8l!19sChIJJb5BoDZIaC4R5W3WulHcaow?authuser=0&hl=id&rclk=1,42,,,Kedai Saribhumi Alamat tidak ditemukan
197,House Of Oase 99,Jl. Amubawa Sasana,"4,8",-6.92276,106.944,https://www.google.com/maps/place/House+Of+Oase+99/data=!4m7!3m6!1s0x2e6849ebb940bf05:0x28f3b53d0933be15!8m2!3d-6.9227634!4d106.9440707!16s%2Fg%2F11jnl7chlk!19sChIJBb9AuetJaC4RFb4zCT218yg?authuser=0&hl=id&rclk=1,27,,,House Of Oase 99 Jl. Amubawa Sasana
198,Kopi Merdeka Sukabumi,Jl. Veteran II No.2,"5,0",-6.91883,106.926,https://www.google.com/maps/place/Kopi+Merdeka+Sukabumi/data=!4m7!3m6!1s0x2e684917b56f5e67:0x619d8900181245a6!8m2!3d-6.918832!4d106.9264121!16s%2Fg%2F11spngd27t!19sChIJZ15vtRdJaC4RpkUSGACJnWE?authuser=0&hl=id&rclk=1,15,,,Kopi Merdeka Sukabumi Jl. Veteran II No.2
199,Kedai Coffee Saayana,Jl. Cikiray-Cijambu No.40,"4,1",-6.91026,106.898,https://www.google.com/maps/place/Kedai+Coffee+Saayana/data=!4m7!3m6!1s0x2e6837897c530127:0x79b3ba56c4759719!8m2!3d-6.9102606!4d106.8975446!16s%2Fg%2F11rc8qn6k1!19sChIJJwFTfIk3aC4RGZd1xFa6s3k?authuser=0&hl=id&rclk=1,14,,,Kedai Coffee Saayana Jl. Cikiray-Cijambu No.40
200,Coffee Cienta Sukabumi,"3WHC+MRM Soedirman Street Food Sukabumi, Jl. Sudirman","5,0",-6.92078,106.922,https://www.google.com/maps/place/Coffee+Cienta+Sukabumi/data=!4m7!3m6!1s0x2e68491cf0cc47db:0xdcf243872fde5c1c!8m2!3d-6.9207807!4d106.922053!16s%2Fg%2F11n718n6c3!19sChIJ20fM8BxJaC4RHFzeL4dD8tw?authuser=0&hl=id&rclk=1,1,,,"Coffee Cienta Sukabumi 3WHC+MRM Soedirman Street Food Sukabumi, Jl. Sudirman"
201,HAUS BENTENG SUKABUMI,Jl. Arif Rahman Hakim No.76-72,"4,4",-6.92155,106.923,https://www.google.com/maps/place/HAUS+BENTENG+SUKABUMI/data=!4m7!3m6!1s0x2e684921df3f2ae9:0x7fcaf09b266b02fb!8m2!3d-6.9215496!4d106.9226938!16s%2Fg%2F11qg43wmb8!19sChIJ6So_3yFJaC4R-wJrJpvwyn8?authuser=0&hl=id&rclk=1,186,,,HAUS BENTENG SUKABUMI Jl. Arif Rahman Hakim No.76-72
202,Ground 68 Coffe & Eatery,Jl. Siliwangi No.68,"4,5",-6.91868,106.937,https://www.google.com/maps/place/Ground+68+Coffe+%26+Eatery/data=!4m7!3m6!1s0x2e6849d7140a60f3:0x725bc09be9e90739!8m2!3d-6.9186835!4d106.9366596!16s%2Fg%2F11h5vmwfzt!19sChIJ82AKFNdJaC4ROQfp6ZvAW3I?authuser=0&hl=id&rclk=1,63,,,Ground 68 Coffe & Eatery Jl. Siliwangi No.68
203,Crowded coffee,Jl. Sudirman,"4,9",-6.92039,106.921,https://www.google.com/maps/place/Crowded+coffee/data=!4m7!3m6!1s0x2e68498bdf143bb5:0x219ec8f9653394df!8m2!3d-6.920393!4d106.9211332!16s%2Fg%2F11jv73nl3c!19sChIJtTsU34tJaC4R35QzZfnIniE?authuser=0&hl=id&rclk=1,15,,,Crowded coffee Jl. Sudirman
204,Cafe NewPelangi,Jl. Pabuaran No.13a,"5,0",-6.92712,106.921,https://www.google.com/maps/place/Cafe+NewPelangi/data=!4m7!3m6!1s0x2e6849003e2bdbcf:0x678c861b5a8ba077!8m2!3d-6.9271167!4d106.9211416!16s%2Fg%2F11nxn_97xk!19sChIJz9srPgBJaC4Rd6CLWhuGjGc?authuser=0&hl=id&rclk=1,1,,,Cafe NewPelangi Jl. Pabuaran No.13a
205,KOPI BRO,Jl. Ciandam No.23 RT 01/08,"4,3",-6.92216,106.949,https://www.google.com/maps/place/KOPI+BRO/data=!4m7!3m6!1s0x2e68499a90da4c29:0x5a9cdd72fecfe323!8m2!3d-6.9221602!4d106.9491592!16s%2Fg%2F11pc9hgfyg!19sChIJKUzakJpJaC4RI-PP_nLdnFo?authuser=0&hl=id&rclk=1,10,,,KOPI BRO Jl. Ciandam No.23 RT 01/08
206,Cafe Nyoempoet,"Girang, Jl. Rambai-Cipanengah Jl. Lkr. Sel.","4,5",-6.94609,106.913,https://www.google.com/maps/place/Cafe+Nyoempoet/data=!4m7!3m6!1s0x2e6848028625a493:0xc70edb8899e1f35d!8m2!3d-6.9460941!4d106.9133693!16s%2Fg%2F11csqjczv1!19sChIJk6QlhgJIaC4RXfPhmYjbDsc?authuser=0&hl=id&rclk=1,655,,,"Cafe Nyoempoet Girang, Jl. Rambai-Cipanengah Jl. Lkr. Sel."
207,KUSBICK COFFEE,Jl. Sriwidari No.50,"4,4",-6.91561,106.927,https://www.google.com/maps/place/KUSBICK+COFFEE/data=!4m7!3m6!1s0x2e684910f944d545:0xe7c5fd71f416ece6!8m2!3d-6.9156088!4d106.9269584!16s%2Fg%2F11hyyfcby0!19sChIJRdVE-RBJaC4R5uwW9HH9xec?authuser=0&hl=id&rclk=1,87,,,KUSBICK COFFEE Jl. Sriwidari No.50
208,Tempat Kopi Santay CSR_WRi #maSih_Ada,Alamat tidak ditemukan,"5,0",-6.90821,106.96,https://www.google.com/maps/place/Tempat+Kopi+Santay+CSR_WRi+%23maSih_Ada/data=!4m7!3m6!1s0x2e6849273723a7fb:0x6f238d3ffcbb94e5!8m2!3d-6.9082063!4d106.9601068!16s%2Fg%2F11r0lmk2bc!19sChIJ-6cjNydJaC4R5ZS7_D-NI28?authuser=0&hl=id&rclk=1,21,,,Tempat Kopi Santay CSR_WRi #maSih_Ada Alamat tidak ditemukan
209,TAWACOFFEE SUKABUMI,Jl. Kenari No.18-14,"5,0",-6.91506,106.93,https://www.google.com/maps/place/TAWACOFFEE+SUKABUMI/data=!4m7!3m6!1s0x2e684928dd4e9ddb:0xe6a8db9070947bc2!8m2!3d-6.9150631!4d106.9298832!16s%2Fg%2F11l5nc1kld!19sChIJ251O3ShJaC4RwnuUcJDbqOY?authuser=0&hl=id&rclk=1,2,,,TAWACOFFEE SUKABUMI Jl. Kenari No.18-14
210,Haku Coffee,Jl. Bhayangkara No.209,"5,0",-6.91368,106.932,https://www.google.com/maps/place/Haku+Coffee/data=!4m7!3m6!1s0x2e684912dcaabe83:0x56c7f0dc91bd3c8d!8m2!3d-6.91368!4d106.9315711!16s%2Fg%2F11kqryr517!19sChIJg76q3BJJaC4RjTy9kdzwx1Y?authuser=0&hl=id&rclk=1,5,,,Haku Coffee Jl. Bhayangkara No.209
211,Warkost Bahagia,Jl. Zaenal Zakse No.25,"4,2",-6.92136,106.931,https://www.google.com/maps/place/Warkost+Bahagia/data=!4m7!3m6!1s0x2e6849007a57e4db:0x8801b3e06e3ae8b7!8m2!3d-6.9213605!4d106.931032!16s%2Fg%2F11x20g8zlb!19sChIJ2-RXegBJaC4Rt-g6buCzAYg?authuser=0&hl=id&rclk=1,38,,,Warkost Bahagia Jl. Zaenal Zakse No.25
212,Blok A Coffee,Jl. Siliwangi No.48,"5,0",-6.92023,106.936,https://www.google.com/maps/place/Blok+A+Coffee/data=!4m7!3m6!1s0x2e684837d7dbeaed:0xba6171c215e0a16c!8m2!3d-6.9202268!4d106.9358747!16s%2Fg%2F11d_z7z2hn!19sChIJ7erb1zdIaC4RbKHgFcJxYbo?authuser=0&hl=id&rclk=1,1,,,Blok A Coffee Jl. Siliwangi No.48
213,VW Coffee Sukabumi,Jl. Sudirman No.31,"5,0",-6.91929,106.918,https://www.google.com/maps/place/VW+Coffee+Sukabumi/data=!4m7!3m6!1s0x2e6849871b44182f:0xe6a33a02a2be8287!8m2!3d-6.9192875!4d106.9179308!16s%2Fg%2F11j936j_5r!19sChIJLxhEG4dJaC4Rh4K-ogI6o-Y?authuser=0&hl=id&rclk=1,2,,,VW Coffee Sukabumi Jl. Sudirman No.31
214,MARA cafe,Jl. Siliwangi No.75,"4,2",-6.91648,106.936,https://www.google.com/maps/place/MARA+cafe/data=!4m7!3m6!1s0x2e68490074f8ec5f:0xe717175bc25d3cb9!8m2!3d-6.916477!4d106.93573!16s%2Fg%2F11vwhnq_q9!19sChIJX-z4dABJaC4RuTxdwlsXF-c?authuser=0&hl=id&rclk=1,22,,,MARA cafe Jl. Siliwangi No.75
215,Warkop Sari Rasa M.Dahlan,Alamat tidak ditemukan,"4,8",-6.92368,106.922,https://www.google.com/maps/place/Warkop+Sari+Rasa+M.Dahlan/data=!4m7!3m6!1s0x2e68482571aabd25:0x729f9ba2c9617b23!8m2!3d-6.9236843!4d106.9216607!16s%2Fg%2F11fy4hnngg!19sChIJJb2qcSVIaC4RI3thyaKbn3I?authuser=0&hl=id&rclk=1,33,,,Warkop Sari Rasa M.Dahlan Alamat tidak ditemukan
216,Mond Coffee,Jl. Pelda Suryanta,"4,6",-6.93463,106.935,https://www.google.com/maps/place/Mond+Coffee/data=!4m7!3m6!1s0x2e6849cb0acb6c89:0x4689b22cee0a8d32!8m2!3d-6.9346337!4d106.9348221!16s%2Fg%2F11vf2yvxsk!19sChIJiWzLCstJaC4RMo0K7iyyiUY?authuser=0&hl=id&rclk=1,9,,,Mond Coffee Jl. Pelda Suryanta
217,Kopi Susu Singapore (Tahu Kepo),Jl. Gudang No.37,"5,0",-6.92104,106.934,https://www.google.com/maps/place/Kopi+Susu+Singapore+%28Tahu+Kepo%29/data=!4m7!3m6!1s0x2e68491389b506bf:0x9f9ca1bb70b398f4!8m2!3d-6.9210385!4d106.9340735!16s%2Fg%2F11x64xgfpz!19sChIJvwa1iRNJaC4R9JizcLuhnJ8?authuser=0&hl=id&rclk=1,5,,,Kopi Susu Singapore (Tahu Kepo) Jl. Gudang No.37
218,Kedai PPOKT,Alamat tidak ditemukan,"5,0",-6.90874,106.891,https://www.google.com/maps/place/Kedai+PPOKT/data=!4m7!3m6!1s0x2e68373fca0e8fb7:0xcacca9d7587c3987!8m2!3d-6.9087389!4d106.8908763!16s%2Fg%2F11ry96g9hn!19sChIJt48Oyj83aC4Rhzl8WNepzMo?authuser=0&hl=id&rclk=1,1,,,Kedai PPOKT Alamat tidak ditemukan
219,PRIDE PALACE COFFE N EATERY ( MUSIC & HOBBIES SPACE),Jl. Surya Kencana No.38,"4,8",-6.91699,106.931,https://www.google.com/maps/place/PRIDE+PALACE+COFFE+N+EATERY+%28+MUSIC+%26+HOBBIES+SPACE%29/data=!4m7!3m6!1s0x2e68495f2d8b0d09:0x24e3f9951340e69c!8m2!3d-6.9169895!4d106.9305169!16s%2Fg%2F11h6t_c558!19sChIJCQ2LLV9JaC4RnOZAE5X54yQ?authuser=0&hl=id&rclk=1,90,,,PRIDE PALACE COFFE N EATERY ( MUSIC & HOBBIES SPACE) Jl. Surya Kencana No.38
220,Kampoeng Kopi Sukabumi,"Near Kampoeng Ikan Resto, Jl. Baru","4,8",-6.92208,106.971,https://www.google.com/maps/place/Kampoeng+Kopi+Sukabumi/data=!4m7!3m6!1s0x2e6849fe01050913:0x2f79aea92aa400c7!8m2!3d-6.9220771!4d106.97095!16s%2Fg%2F11mtd2bpng!19sChIJEwkFAf5JaC4RxwCkKqmueS8?authuser=0&hl=id&rclk=1,27,,,"Kampoeng Kopi Sukabumi Near Kampoeng Ikan Resto, Jl. Baru"
221,Kedai Sriwidari 68,Jl. Sriwidari No.70,"4,7",-6.91408,106.928,https://www.google.com/maps/place/Kedai+Sriwidari+68/data=!4m7!3m6!1s0x2e68483310ff8de3:0x30953f2875bc9717!8m2!3d-6.9140777!4d106.9280802!16s%2Fg%2F11f26x8qb0!19sChIJ443_EDNIaC4RF5e8dSg_lTA?authuser=0&hl=id&rclk=1,33,,,Kedai Sriwidari 68 Jl. Sriwidari No.70
222,Tikkum,Jl. Cikole Dalam No.38,"4,4",-6.91788,106.932,https://www.google.com/maps/place/Tikkum/data=!4m7!3m6!1s0x2e684963c601523f:0x360bd53756e32c87!8m2!3d-6.9178775!4d106.9323851!16s%2Fg%2F11trsyd_8s!19sChIJP1IBxmNJaC4RhyzjVjfVCzY?authuser=0&hl=id&rclk=1,143,,,Tikkum Jl. Cikole Dalam No.38
223,Kopi Warga Sukabumi,"3WJQ+JR7, Jl. Samsi Jl. Babakan Jampang, RT.1/RW.19","5,0",-6.91847,106.94,https://www.google.com/maps/place/Kopi+Warga+Sukabumi/data=!4m7!3m6!1s0x2e68492084df4e1b:0x25be4d065fd8d66f!8m2!3d-6.9184675!4d106.9395356!16s%2Fg%2F11l5sm7mpl!19sChIJG07fhCBJaC4Rb9bYXwZNviU?authuser=0&hl=id&rclk=1,5,,,"Kopi Warga Sukabumi 3WJQ+JR7, Jl. Samsi Jl. Babakan Jampang, RT.1/RW.19"
224,de'cafe,Alamat tidak ditemukan,"4,8",-6.92477,106.886,https://www.google.com/maps/place/de%27cafe/data=!4m7!3m6!1s0x2e683769ed037d29:0x2c6b097bb92a2e45!8m2!3d-6.9247684!4d106.8860993!16s%2Fg%2F11kwndzftd!19sChIJKX0D7Wk3aC4RRS4quXsJayw?authuser=0&hl=id&rclk=1,8,,,de'cafe Alamat tidak ditemukan
225,Kopikat Sukabumi,Jl. Syamsudin. SH No.51,"5,0",-6.91823,106.935,https://www.google.com/maps/place/Kopikat+Sukabumi/data=!4m7!3m6!1s0x2e6849ccfd87cabd:0x6bc2570b0cb9304d!8m2!3d-6.9182323!4d106.9345773!16s%2Fg%2F11jcgnhpc0!19sChIJvcqH_cxJaC4RTTC5DAtXwms?authuser=0&hl=id&rclk=1,1,,,Kopikat Sukabumi Jl. Syamsudin. SH No.51
226,Milan Pizzeria Cafe,"Jl. Surya Kencana No.5, RW.6","4,5",-6.91885,106.928,https://www.google.com/maps/place/Milan+Pizzeria+Cafe/data=!4m7!3m6!1s0x2e6848311a5ce80b:0xf63cea179842549d!8m2!3d-6.9188451!4d106.9282451!16s%2Fg%2F11c3s91frc!19sChIJC-hcGjFIaC4RnVRCmBfqPPY?authuser=0&hl=id&rclk=1,830,,,"Milan Pizzeria Cafe Jl. Surya Kencana No.5, RW.6"
227,Kedai kopi & teh GRACIA,Jl. A. Yani Gg Kebon Kelapa No.8,"5,0",-6.92366,106.932,https://www.google.com/maps/place/Kedai+kopi+%26+teh+GRACIA/data=!4m7!3m6!1s0x2e6849d39e952e97:0x1aa24848cb533e6d!8m2!3d-6.9236635!4d106.9321498!16s%2Fg%2F11pb_h6ff3!19sChIJly6VntNJaC4RbT5Ty0hIoho?authuser=0&hl=id&rclk=1,2,,,Kedai kopi & teh GRACIA Jl. A. Yani Gg Kebon Kelapa No.8
228,Moonshine Coffee & Space,Jl. Gunung Jaya Kaler,"4,4",-6.88435,106.906,https://www.google.com/maps/place/Moonshine+Coffee+%26+Space/data=!4m7!3m6!1s0x2e68372d3da6dac9:0x74a175c1837948b3!8m2!3d-6.8843541!4d106.9064907!16s%2Fg%2F11np7t91m3!19sChIJydqmPS03aC4Rs0h5g8F1oXQ?authuser=0&hl=id&rclk=1,297,,,Moonshine Coffee & Space Jl. Gunung Jaya Kaler
229,Manan Coffe,"3WMJ+JM5, Jl. Bhayangkara","4,4",-6.91599,106.932,https://www.google.com/maps/place/Manan+Coffe/data=!4m7!3m6!1s0x2e684900676a5e21:0xec3a28d374d2996b!8m2!3d-6.9159935!4d106.9317285!16s%2Fg%2F11w4nd2917!19sChIJIV5qZwBJaC4Ra5nSdNMoOuw?authuser=0&hl=id&rclk=1,9,,,"Manan Coffe 3WMJ+JM5, Jl. Bhayangkara"
230,Terserah resto n cafe,Jl. Sudirman No.103,"5,0",-6.92101,106.922,https://www.google.com/maps/place/Terserah+resto+n+cafe/data=!4m7!3m6!1s0x2e68493a0e58b509:0x6967a1cefe0b8743!8m2!3d-6.9210101!4d106.9217887!16s%2Fg%2F11ry75xkm8!19sChIJCbVYDjpJaC4RQ4cL_s6hZ2k?authuser=0&hl=id&rclk=1,2,,,Terserah resto n cafe Jl. Sudirman No.103
231,Point Coffee,Alamat tidak ditemukan,"5,0",-6.92174,106.945,https://www.google.com/maps/place/Point+Coffee/data=!4m7!3m6!1s0x2e684900631d10bb:0x2340fc6ed2cf9997!8m2!3d-6.9217449!4d106.9452818!16s%2Fg%2F11w4c94s69!19sChIJuxAdYwBJaC4Rl5nP0m78QCM?authuser=0&hl=id&rclk=1,3,,,Point Coffee Alamat tidak ditemukan
232,Starlings Corner,"3WHJ+Q3V, Jl. RE Martadinata","5,0",-6.92052,106.93,https://www.google.com/maps/place/Starlings+Corner/data=!4m7!3m6!1s0x2e6849004beb939d:0xc5adbff0ed94d632!8m2!3d-6.9205223!4d106.9301735!16s%2Fg%2F11wwmwr_d5!19sChIJnZPrSwBJaC4RMtaU7fC_rcU?authuser=0&hl=id&rclk=1,1,,,"Starlings Corner 3WHJ+Q3V, Jl. RE Martadinata"
233,KEDAI KEMBALI,"Jl. Ciaul Pasir, RT.5/RW.8","4,5",-6.91766,106.944,https://www.google.com/maps/place/KEDAI+KEMBALI/data=!4m7!3m6!1s0x2e6849499deaf961:0x455843d25a955703!8m2!3d-6.9176611!4d106.9443914!16s%2Fg%2F11sjjxst79!19sChIJYfnqnUlJaC4RA1eVWtJDWEU?authuser=0&hl=id&rclk=1,47,,,"KEDAI KEMBALI Jl. Ciaul Pasir, RT.5/RW.8"
234,kedai kopi TORTUGA,Jl. Dayeuh Luhur No.10,"4,5",-6.93865,106.923,https://www.google.com/maps/place/kedai+kopi+TORTUGA/data=!4m7!3m6!1s0x2e6849d210850f7d:0xc7b3cdbb79dbf935!8m2!3d-6.9386466!4d106.9229659!16s%2Fg%2F11jk687t1k!19sChIJfQ-FENJJaC4RNfnbebvNs8c?authuser=0&hl=id&rclk=1,6,,,kedai kopi TORTUGA Jl. Dayeuh Luhur No.10
235,Kopi depan rumah,Jl. Balai Desa No.19,"5,0",-6.92107,106.93,https://www.google.com/maps/place/Kopi+depan+rumah/data=!4m7!3m6!1s0x2e6849663a6bdb77:0x3ec025e60e262abf!8m2!3d-6.921066!4d106.9298204!16s%2Fg%2F11q2893cmt!19sChIJd9trOmZJaC4RvyomDuYlwD4?authuser=0&hl=id&rclk=1,2,,,Kopi depan rumah Jl. Balai Desa No.19
236,Takashi Bakehouse x Republik Burger Sukabumi,Jl. Syamsudin. SH No.31,"4,9",-6.91833,106.933,https://www.google.com/maps/place/Takashi+Bakehouse+x+Republik+Burger+Sukabumi/data=!4m7!3m6!1s0x2e6849d4079d1495:0x1012323ad552eab2!8m2!3d-6.918328!4d106.9329055!16s%2Fg%2F11t438pzj8!19sChIJlRSdB9RJaC4RsupS1ToyEhA?authuser=0&hl=id&rclk=1,81,,,Takashi Bakehouse x Republik Burger Sukabumi Jl. Syamsudin. SH No.31
237,Choma,Jl. Kenari No.1A,"5,0",-6.91521,106.93,https://www.google.com/maps/place/Choma/data=!4m7!3m6!1s0x2e684900494b67db:0x5e2f10b2b48edf69!8m2!3d-6.9152088!4d106.9295656!16s%2Fg%2F11y3y_gtqr!19sChIJ22dLSQBJaC4Rad-OtLIQL14?authuser=0&hl=id&rclk=1,1,,,Choma Jl. Kenari No.1A
238,ABADI CAFE - COFFE & BOBA Cibaraja,Jl. Cagak - Cibaraja No.41,"4,6",-6.9012,106.882,https://www.google.com/maps/place/ABADI+CAFE+-+COFFE+%26+BOBA+Cibaraja/data=!4m7!3m6!1s0x2e6837fc63836bcd:0xc5a25085b0875fa4!8m2!3d-6.9011997!4d106.8818975!16s%2Fg%2F11l55m6_1l!19sChIJzWuDY_w3aC4RpF-HsIVQosU?authuser=0&hl=id&rclk=1,7,,,ABADI CAFE - COFFE & BOBA Cibaraja Jl. Cagak - Cibaraja No.41
239,Bapak hitam cafe,Alamat tidak ditemukan,"5,0",-6.92774,106.93,https://www.google.com/maps/place/Bapak+hitam+cafe/data=!4m7!3m6!1s0x2e68494281945fd7:0x54e847bcd1ecbf4!8m2!3d-6.9277361!4d106.9299579!16s%2Fg%2F11v5bj0608!19sChIJ11-UgUJJaC4R9MsezXuETgU?authuser=0&hl=id&rclk=1,1,,,Bapak hitam cafe Alamat tidak ditemukan
240,SABA BALI CAFE AND RESTO,Alamat tidak ditemukan,"4,0",-6.95098,106.925,https://www.google.com/maps/place/SABA+BALI+CAFE+AND+RESTO/data=!4m7!3m6!1s0x2e6849521f5c61eb:0x32f978c4ad06f6d8!8m2!3d-6.950976!4d106.9246909!16s%2Fg%2F11js_dnt7m!19sChIJ62FcH1JJaC4R2PYGrcR4-TI?authuser=0&hl=id&rclk=1,1,,,SABA BALI CAFE AND RESTO Alamat tidak ditemukan
